[
  {
    "lat": 3.3274078,
    "lon": -76.53311,
    "direccion": "CALLE 18 CON CARRERA 130",
    "tecnologia": "Lazo Inductivo de Piso (Espiras)",
    "instalacion": "nan",
    "estado": "Renovada - Expirada",
    "infracciones": "nan",
    "velocidad": "",
    "nombre": "Cl18Cr130"
  },
  {
    "lat": 3.3428313,
    "lon": -76.5309674,
    "direccion": "CALLE 18 CON CARRERA 122",
    "tecnologia": "Lazo Inductivo de Piso (Espiras)",
    "instalacion": "nan",
    "estado": "Renovada - Expirada",
    "infracciones": "nan",
    "velocidad": "",
    "nombre": "Cl18Cr122"
  },
  {
    "lat": 3.4792551,
    "lon": -76.488393,
    "direccion": "CALLE 70 CON CARRERA 1B",
    "tecnologia": "Lazo Inductivo de Piso (Espiras)",
    "instalacion": "nan",
    "estado": "Renovada - Expirada",
    "infracciones": "nan",
    "velocidad": "",
    "nombre": "Cl70Cr1B"
  },
  {
    "lat": 3.4093168,
    "lon": -76.534435,
    "direccion": "CALLE 13 CON CARRERA 50",
    "tecnologia": "Lazo Inductivo de Piso (Espiras)",
    "instalacion": "nan",
    "estado": "Renovada - Expirada",
    "infracciones": "nan",
    "velocidad": "",
    "nombre": "Cl13Cr50"
  },
  {
    "lat": 3.4502579,
    "lon": -76.4875828,
    "direccion": "CALLE 70 CON CARRERA 9",
    "tecnologia": "Laser (Lidar) / Infrarrojo",
    "instalacion": "nan",
    "estado": "Renovada - Expirada",
    "infracciones": "nan",
    "velocidad": "",
    "nombre": "Cl70Cr9"
  },
  {
    "lat": 3.3984059,
    "lon": -76.5378339,
    "direccion": "CALLE 13 CON CARRERA 66",
    "tecnologia": "Lazo Inductivo de Piso (Espiras)",
    "instalacion": "nan",
    "estado": "Renovada - Expirada",
    "infracciones": "nan",
    "velocidad": "",
    "nombre": "Cl13Cr66"
  },
  {
    "lat": 3.4224253,
    "lon": -76.538248,
    "direccion": "CALLE 9 CON CARRERA 38",
    "tecnologia": "Lazo Inductivo de Piso (Espiras)",
    "instalacion": "nan",
    "estado": "Renovada - Expirada",
    "infracciones": "nan",
    "velocidad": "",
    "nombre": "Cl9Cr38"
  },
  {
    "lat": 3.4560002,
    "lon": -76.5223654,
    "direccion": "CARRERA 5 CON CALLE 23",
    "tecnologia": "Lazo Inductivo de Piso (Espiras)",
    "instalacion": "nan",
    "estado": "Renovada - Expirada",
    "infracciones": "nan",
    "velocidad": "",
    "nombre": "Cr5Cl23"
  },
  {
    "lat": 3.4093953,
    "lon": -76.5178873,
    "direccion": "CARRERA 46 CON CALLE 36",
    "tecnologia": "Lazo Inductivo de Piso (Espiras)",
    "instalacion": "nan",
    "estado": "Renovada - Expirada",
    "infracciones": "nan",
    "velocidad": "",
    "nombre": "Cr46Cl36"
  },
  {
    "lat": 3.4356575,
    "lon": -76.5281992,
    "direccion": "CALLE 13 CON CARRERA 23",
    "tecnologia": "Lazo Inductivo de Piso (Espiras)",
    "instalacion": "nan",
    "estado": "Renovada - Expirada",
    "infracciones": "nan",
    "velocidad": "",
    "nombre": "Cl13Cr23"
  },
  {
    "lat": 3.4124376,
    "lon": -76.5152203,
    "direccion": "CALLE 36 CON CARRERA 42B",
    "tecnologia": "Lazo Inductivo de Piso (Espiras)",
    "instalacion": "nan",
    "estado": "Renovada - Expirada",
    "infracciones": "nan",
    "velocidad": "",
    "nombre": "Cl36Cr42B"
  },
  {
    "lat": 3.4756242,
    "lon": -76.5041172,
    "direccion": "CALLE 52 CON CARRERA 1",
    "tecnologia": "Lazo Inductivo de Piso (Espiras)",
    "instalacion": "nan",
    "estado": "Renovada - Expirada",
    "infracciones": "nan",
    "velocidad": "",
    "nombre": "Cl52Cr1"
  },
  {
    "lat": 3.407457,
    "lon": -76.5424192,
    "direccion": "CARRERA 56 CON CALLE 9",
    "tecnologia": "Lazo Inductivo de Piso (Espiras)",
    "instalacion": "nan",
    "estado": "Renovada - Expirada",
    "infracciones": "nan",
    "velocidad": "",
    "nombre": "Cr56Cl9"
  },
  {
    "lat": 3.4320396,
    "lon": -76.53883,
    "direccion": "CALLE 6 CON CARRERA 29",
    "tecnologia": "Lazo Inductivo de Piso (Espiras)",
    "instalacion": "nan",
    "estado": "Renovada - Expirada",
    "infracciones": "nan",
    "velocidad": "",
    "nombre": "Cl6Cr29"
  },
  {
    "lat": 3.4018078,
    "lon": -76.524469,
    "direccion": "CARRERA 56 CON CALLE 18A",
    "tecnologia": "Lazo Inductivo de Piso (Espiras)",
    "instalacion": "nan",
    "estado": "Renovada - Expirada",
    "infracciones": "nan",
    "velocidad": "",
    "nombre": "Cr56Cl18A"
  },
  {
    "lat": 3.4552027,
    "lon": -76.484845,
    "direccion": "CALLE 70 CON CARRERA 7MBIS",
    "tecnologia": "Laser (Lidar) / Infrarrojo",
    "instalacion": "nan",
    "estado": "Renovada - Expirada",
    "infracciones": "nan",
    "velocidad": "",
    "nombre": "Cl70Cr7Mbs"
  },
  {
    "lat": 3.4846512,
    "lon": -76.5260089,
    "direccion": "AVENIDA 6N CON CALLE 47",
    "tecnologia": "Lazo Inductivo de Piso (Espiras)",
    "instalacion": "nan",
    "estado": "Renovada - Expirada",
    "infracciones": "nan",
    "velocidad": "",
    "nombre": "Av6Cl47"
  },
  {
    "lat": 3.3873908,
    "lon": -76.532488,
    "direccion": "CALLE 14 CON CARRERA 80",
    "tecnologia": "Lazo Inductivo de Piso (Espiras)",
    "instalacion": "nan",
    "estado": "Renovada - Expirada",
    "infracciones": "nan",
    "velocidad": "",
    "nombre": "Cl14Cr80"
  },
  {
    "lat": 3.4628735,
    "lon": -76.521979,
    "direccion": "CALLE 25 CON AVENIDA 2",
    "tecnologia": "Lazo Inductivo de Piso (Espiras)",
    "instalacion": "nan",
    "estado": "Renovada - Expirada",
    "infracciones": "nan",
    "velocidad": "",
    "nombre": "Cl25Av2"
  },
  {
    "lat": 3.4108353,
    "lon": -76.5417392,
    "direccion": "CALLE 9 CON CARRERA 50",
    "tecnologia": "Lazo Inductivo de Piso (Espiras)",
    "instalacion": "nan",
    "estado": "Renovada - Expirada",
    "infracciones": "nan",
    "velocidad": "",
    "nombre": "Cl9Cr50"
  },
  {
    "lat": 3.4891759,
    "lon": -76.5055641,
    "direccion": "CALLE 70 AVENIDA 2AN",
    "tecnologia": "Lazo Inductivo de Piso (Espiras)",
    "instalacion": "nan",
    "estado": "Renovada - Expirada",
    "infracciones": "nan",
    "velocidad": "",
    "nombre": "Cl70Av2AN"
  },
  {
    "lat": 3.4359883,
    "lon": -76.5200453,
    "direccion": "CALLE 23 CON CARRERA 23",
    "tecnologia": "Lazo Inductivo de Piso (Espiras)",
    "instalacion": "nan",
    "estado": "Renovada - Expirada",
    "infracciones": "nan",
    "velocidad": "",
    "nombre": "Cl23Cr23"
  },
  {
    "lat": 3.3855963,
    "lon": -76.5444215,
    "direccion": "CALLE 5 CON CARRERA 80",
    "tecnologia": "Lazo Inductivo de Piso (Espiras)",
    "instalacion": "nan",
    "estado": "Renovada - Expirada",
    "infracciones": "nan",
    "velocidad": "",
    "nombre": "Cl5Cr80"
  },
  {
    "lat": 3.4525322,
    "lon": -76.537772,
    "direccion": "AVENIDA 2 CON CALLE 6",
    "tecnologia": "Lazo Inductivo de Piso (Espiras)",
    "instalacion": "nan",
    "estado": "Renovada - Expirada",
    "infracciones": "nan",
    "velocidad": "",
    "nombre": "Av2Cl6"
  },
  {
    "lat": 3.4806964,
    "lon": -76.4894095,
    "direccion": "CALLE 70 CON CARRERA 1A-12",
    "tecnologia": "Lazo Inductivo de Piso (Espiras)",
    "instalacion": "nan",
    "estado": "Renovada - Expirada",
    "infracciones": "nan",
    "velocidad": "",
    "nombre": "Cl70Cr1A12"
  },
  {
    "lat": 3.4149691,
    "lon": -76.5371256,
    "direccion": "CALLE 10 CON CARRERA 45",
    "tecnologia": "Laser (Lidar) / Infrarrojo",
    "instalacion": "nan",
    "estado": "Renovada - Expirada",
    "infracciones": "nan",
    "velocidad": "",
    "nombre": "Cl10Cr45"
  },
  {
    "lat": 3.4678576,
    "lon": -76.5293658,
    "direccion": "AVENIDA 6N CON CALLE 26",
    "tecnologia": "Lazo Inductivo de Piso (Espiras)",
    "instalacion": "nan",
    "estado": "Renovada - Expirada",
    "infracciones": "nan",
    "velocidad": "",
    "nombre": "Av6Cl26"
  },
  {
    "lat": 3.4839147,
    "lon": -76.5141141,
    "direccion": "CALLE 52 AVENIDA 3N",
    "tecnologia": "Lazo Inductivo de Piso (Espiras)",
    "instalacion": "nan",
    "estado": "Renovada - Expirada",
    "infracciones": "nan",
    "velocidad": "",
    "nombre": "Cl52Av3"
  },
  {
    "lat": 3.4427762,
    "lon": -76.531974,
    "direccion": "CALLE 10 CON CARRERA 15",
    "tecnologia": "Lazo Inductivo de Piso (Espiras)",
    "instalacion": "nan",
    "estado": "Renovada - Expirada",
    "infracciones": "nan",
    "velocidad": "",
    "nombre": "Cl10Cr15"
  },
  {
    "lat": 3.3905044,
    "lon": -76.5240686,
    "direccion": "CALLE 25 CON CARRERA 73",
    "tecnologia": "Lazo Inductivo de Piso (Espiras)",
    "instalacion": "nan",
    "estado": "Renovada - Expirada",
    "infracciones": "nan",
    "velocidad": "",
    "nombre": "Cl25Cr73"
  },
  {
    "lat": 3.4152051,
    "lon": -76.537151,
    "direccion": "CALLE 10 CON CARRERA 44A",
    "tecnologia": "Laser (Lidar) / Infrarrojo",
    "instalacion": "nan",
    "estado": "Renovada - Expirada",
    "infracciones": "nan",
    "velocidad": "",
    "nombre": "Cl10Cr44A"
  },
  {
    "lat": 3.3703348,
    "lon": -76.5371272,
    "direccion": "CALLE 13 CON CARRERA 100",
    "tecnologia": "Lazo Inductivo de Piso (Espiras)",
    "instalacion": "nan",
    "estado": "Renovada - Expirada",
    "infracciones": "nan",
    "velocidad": "",
    "nombre": "Cl13Cr100"
  },
  {
    "lat": 3.4314865,
    "lon": -76.5376072,
    "direccion": "CALLE 7 CON CARRERA 29",
    "tecnologia": "Lazo Inductivo de Piso (Espiras)",
    "instalacion": "nan",
    "estado": "Renovada - Expirada",
    "infracciones": "nan",
    "velocidad": "",
    "nombre": "Cl7Cr29"
  },
  {
    "lat": 3.3933259,
    "lon": -76.532425,
    "direccion": "CALLE 14 CON CARRERA 70",
    "tecnologia": "Lazo Inductivo de Piso (Espiras)",
    "instalacion": "nan",
    "estado": "Renovada - Expirada",
    "infracciones": "nan",
    "velocidad": "",
    "nombre": "Cl14Cr70"
  },
  {
    "lat": 3.3981553,
    "lon": -76.5468447,
    "direccion": "CARRERA 66 CON CALLE 5",
    "tecnologia": "Lazo Inductivo de Piso (Espiras)",
    "instalacion": "nan",
    "estado": "Renovada - Expirada",
    "infracciones": "nan",
    "velocidad": "",
    "nombre": "Cr66Cl5"
  },
  {
    "lat": 3.387949,
    "lon": -76.52877,
    "direccion": "Carrera 80 - calle 16 sentido O - E",
    "tecnologia": "Radar Doppler",
    "instalacion": "Fijo",
    "estado": "Operando",
    "infracciones": "C14, C24, C29, C32, C35, D02, D04, D07",
    "velocidad": "50.0",
    "nombre": "SAST38"
  },
  {
    "lat": 3.432436,
    "lon": -76.542375,
    "direccion": "Carrera 34 - Calle 5 Sentido ESE - ONO",
    "tecnologia": "Radar Doppler",
    "instalacion": "Fijo",
    "estado": "Operando",
    "infracciones": "C14, C24, C29, C32, C35, D02, D04, D07",
    "velocidad": "50.0",
    "nombre": "SAST20"
  },
  {
    "lat": 3.419761,
    "lon": -76.507802,
    "direccion": "Calle 36 - KR 39 Sentido  NE - SO Carriles del costado sur de la calzada",
    "tecnologia": "Radar Doppler",
    "instalacion": "Fijo",
    "estado": "Operando",
    "infracciones": "C14, C24, C29, C32, C35, D02, D04, D05, D07",
    "velocidad": "50.0",
    "nombre": "SAST14A"
  },
  {
    "lat": 3.442414,
    "lon": -76.52633,
    "direccion": "Carrera 15 - calle 15 sentido O - E",
    "tecnologia": "Radar Doppler",
    "instalacion": "Fijo",
    "estado": "Operando",
    "infracciones": "C14, C24, C29, C32, C35, D02, D04, D07",
    "velocidad": "40.0",
    "nombre": "SAST26"
  },
  {
    "lat": 3.418762,
    "lon": -76.486492,
    "direccion": "Calle 73 - Carrera 28D Sentido N - S",
    "tecnologia": "Radar Doppler",
    "instalacion": "Fijo",
    "estado": "Operando",
    "infracciones": "C14, C24, C29, C32, C35, D02, D04, D07, H07",
    "velocidad": "30.0",
    "nombre": "SAST28"
  },
  {
    "lat": 3.359444,
    "lon": -76.52412,
    "direccion": "Calle 25 - carrera 109 Sentido NNO - SSE [Ruta 25, sector Puente Valencia sobre el río Cauca – Cali, código del tramo: 2504 y PR 116+488.]",
    "tecnologia": "Radar Doppler",
    "instalacion": "Fijo",
    "estado": "Operando",
    "infracciones": "C14, C24, C26, C29, C35, D02, D04, D07",
    "velocidad": "50.0",
    "nombre": "SAST18"
  },
  {
    "lat": 3.358624,
    "lon": -76.52379,
    "direccion": "Calle 25 - carrera 109 Sentido SSE - NNO [Ruta 25, sector Puente Valencia sobre el río Cauca – Cali, código del tramo: 2504 y PR 116+400]",
    "tecnologia": "Radar Doppler",
    "instalacion": "Fijo",
    "estado": "Operando",
    "infracciones": "C14, C24, C26, C29, C32, C35, D02, D04, D07",
    "velocidad": "50.0",
    "nombre": "SAST19"
  },
  {
    "lat": 3.393073,
    "lon": -76.53827,
    "direccion": "Calle 13 - Carrera 70 Sentido S- N",
    "tecnologia": "Radar Doppler",
    "instalacion": "Fijo",
    "estado": "Operando",
    "infracciones": "C14, C24, C29, C32, C35, D02, D04, D07",
    "velocidad": "50.0",
    "nombre": "SAST11"
  },
  {
    "lat": 3.450043,
    "lon": -76.51778,
    "direccion": "calle 26 – carrera 10 (sentido S-N)",
    "tecnologia": "Radar Doppler",
    "instalacion": "Fijo",
    "estado": "Operando",
    "infracciones": "C14, C24, C29, C32, C35, D02, D04, D07",
    "velocidad": "50.0",
    "nombre": "SAST32"
  },
  {
    "lat": 3.464712,
    "lon": -76.51491,
    "direccion": "Carrera 1 - calle 34 sentido ENE - OSO",
    "tecnologia": "Radar Doppler",
    "instalacion": "Fijo",
    "estado": "Operando",
    "infracciones": "C14, C24, C29, C32, C35, D02, D04, D07",
    "velocidad": "50.0",
    "nombre": "SAST05"
  },
  {
    "lat": 3.477719,
    "lon": -76.517341,
    "direccion": "Avenida 3N Calle 44 N Sentido SO - NE (Calzada rápida de tránsito mixto)",
    "tecnologia": "Radar Doppler",
    "instalacion": "Fijo",
    "estado": "Operando",
    "infracciones": "C14, C24, C26, C29, C32, C35, D02, D04, D07",
    "velocidad": "50.0",
    "nombre": "SAST01"
  },
  {
    "lat": 3.441308,
    "lon": -76.49876,
    "direccion": "carrera 23 - calle 52 sentido ENE - OSO calzada rápida 3 carriles",
    "tecnologia": "Radar Doppler",
    "instalacion": "Fijo",
    "estado": "Operando",
    "infracciones": "C14, C24, C29, C32, C35, D02, D04, D07",
    "velocidad": "50.0",
    "nombre": "SAST6A"
  },
  {
    "lat": 3.48175,
    "lon": -76.50954,
    "direccion": "Avenida 2N - Calle 52 N Sentido NNE - SSO",
    "tecnologia": "Radar Doppler",
    "instalacion": "Fijo",
    "estado": "Operando",
    "infracciones": "C14, C24, C29, C32, C35, D02, D04, D07",
    "velocidad": "50.0",
    "nombre": "SAST24"
  },
  {
    "lat": 3.449526,
    "lon": -76.5216,
    "direccion": "Carrera 10 - calle 22 Sentido ENE - OSO",
    "tecnologia": "Radar Doppler",
    "instalacion": "Fijo",
    "estado": "Operando",
    "infracciones": "C14, C24, C26, C29, C35, D02, D07",
    "velocidad": "30.0",
    "nombre": "SAST15"
  },
  {
    "lat": 3.41612,
    "lon": -76.54848,
    "direccion": "Calle 5 - carrera 50 Sentido N - S",
    "tecnologia": "Radar Doppler",
    "instalacion": "Fijo",
    "estado": "Operando",
    "infracciones": "C14, C24, C29, C32, C35, D02, D04, D07",
    "velocidad": "50.0",
    "nombre": "SAST04"
  },
  {
    "lat": 3.449526,
    "lon": -76.5216,
    "direccion": "Carrera 10 - calle 22 Sentido OSO - ENE",
    "tecnologia": "Radar Doppler",
    "instalacion": "Fijo",
    "estado": "Operando",
    "infracciones": "C14, C24, C26, C29, C35, D02, D07",
    "velocidad": "30.0",
    "nombre": "SAST16"
  },
  {
    "lat": 3.439952,
    "lon": -76.50181,
    "direccion": "Carrera 23 - calle 44 sentido OSO - ENE",
    "tecnologia": "Radar Doppler",
    "instalacion": "Fijo",
    "estado": "Operando",
    "infracciones": "C14, C24, C29, C35, D02, D07",
    "velocidad": "50.0",
    "nombre": "SAST12"
  },
  {
    "lat": 3.420549,
    "lon": -76.53488,
    "direccion": "Carrera 39 - calle 10  Sentido ESE - ONO -  (Calzada del costado izquierdo  2 carriles)",
    "tecnologia": "Radar Doppler",
    "instalacion": "Fijo",
    "estado": "Operando",
    "infracciones": "C14, C24, C29, C32, C35, D02, D04, D07",
    "velocidad": "50.0",
    "nombre": "SAST21"
  },
  {
    "lat": 3.432301,
    "lon": -76.52783,
    "direccion": "Calle 13  - Diagonal 23 NNO - SSE",
    "tecnologia": "Radar Doppler",
    "instalacion": "Fijo",
    "estado": "Operando",
    "infracciones": "C14, C24, C29, C32, C35, D02, D04, D05, D07",
    "velocidad": "50.0",
    "nombre": "SAST10"
  },
  {
    "lat": 3.444882,
    "lon": -76.50933,
    "direccion": "Carrera 15  - calle 34 sentido O - E",
    "tecnologia": "Radar Doppler",
    "instalacion": "Fijo",
    "estado": "Operando",
    "infracciones": "C14, C24, C29, C32, C35, D02, D04, D07",
    "velocidad": "50.0",
    "nombre": "SAST30"
  },
  {
    "lat": 3.413753,
    "lon": -76.54805,
    "direccion": "calle 5 carrera 52 sentido S - N",
    "tecnologia": "Radar Doppler",
    "instalacion": "Fijo",
    "estado": "Operando",
    "infracciones": "C14, C24, C29, C32, C35, D02, D04, D05, D07",
    "velocidad": "50.0",
    "nombre": "SAST07"
  },
  {
    "lat": 3.420623,
    "lon": -76.53483,
    "direccion": "Carrera 39 -  calle 10 sentido ESE - ONO (Calzada del costado derecho - 3 carriles)",
    "tecnologia": "Radar Doppler",
    "instalacion": "Fijo",
    "estado": "Operando",
    "infracciones": "C14, C24, C29, C32, C35, D02, D04, D07",
    "velocidad": "50.0",
    "nombre": "SAST22"
  },
  {
    "lat": 3.3274078,
    "lon": -76.53311,
    "direccion": "calle 18 - carrera 130  sentido N-S",
    "tecnologia": "Radar Doppler",
    "instalacion": "Fijo",
    "estado": "Operando",
    "infracciones": "C14, C24, C29, C35, D02, D05, D07",
    "velocidad": "30.0",
    "nombre": "SAST98"
  },
  {
    "lat": 3.442572,
    "lon": -76.53664,
    "direccion": "Calle 5 - carrera 17 Sentido S - N",
    "tecnologia": "Radar Doppler",
    "instalacion": "Fijo",
    "estado": "Operando",
    "infracciones": "C14, C24, C29, C35, D02, D07",
    "velocidad": "50.0",
    "nombre": "SAST39"
  },
  {
    "lat": 3.442572,
    "lon": -76.53664,
    "direccion": "Calle 5 - carrera 17 Sentido N - S",
    "tecnologia": "Radar Doppler",
    "instalacion": "Fijo",
    "estado": "Operando",
    "infracciones": "C14, C24, C29, C35, D02, D07",
    "velocidad": "50.0",
    "nombre": "SAST40"
  },
  {
    "lat": 3.453654,
    "lon": -76.505481,
    "direccion": "Calle 44 - Carrera 8 Sentido NNO - SSE",
    "tecnologia": "Radar Doppler",
    "instalacion": "Fijo",
    "estado": "Operando",
    "infracciones": "C14, C24, C29, C32, C35, D02, D04, D07",
    "velocidad": "50.0",
    "nombre": "SAST27"
  },
  {
    "lat": 3.367807,
    "lon": -76.529703,
    "direccion": "Calle 16 - carrera 100 sentido Norte - Sur",
    "tecnologia": "Radar Doppler",
    "instalacion": "Fijo",
    "estado": "Operando",
    "infracciones": "C14, C24, C29, C32, C35, D02, D04, D07",
    "velocidad": "50.0",
    "nombre": "SAST02"
  },
  {
    "lat": 3.454201,
    "lon": -76.511496,
    "direccion": "Carrera 8 - Calle 34 Sentido E - O",
    "tecnologia": "Radar Doppler",
    "instalacion": "Fijo",
    "estado": "Operando",
    "infracciones": "C14, C24, C29, C32, C35, D02, D04, D07",
    "velocidad": "50.0",
    "nombre": "SAST33"
  },
  {
    "lat": 3.3428313,
    "lon": -76.53096747,
    "direccion": "Calle 18 - carrera 122 sentido S - N",
    "tecnologia": "Radar Doppler",
    "instalacion": "Fijo",
    "estado": "Operando",
    "infracciones": "C14, C24, C26, C29, C32, C35, D02, D04, D05, D07",
    "velocidad": "50.0",
    "nombre": "SAST95"
  },
  {
    "lat": 3.47918602,
    "lon": -76.48838065,
    "direccion": "Calle 70 - carrera 1B sentido SSE - NNO calzada rápida (calzada del costado occidental)",
    "tecnologia": "Radar Doppler",
    "instalacion": "Fijo",
    "estado": "Operando",
    "infracciones": "C14, C24, C26, C29, C32, C35, D02, D04, D05, D07",
    "velocidad": "50.0",
    "nombre": "SAST124"
  },
  {
    "lat": 3.40931682,
    "lon": -76.53443541,
    "direccion": "Calle 13 - carrera 50 NNE - SSO",
    "tecnologia": "Radar Doppler",
    "instalacion": "Fijo",
    "estado": "Operando",
    "infracciones": "C14, C24, C26, C29, C32, C35, D02, D04, D05, D07",
    "velocidad": "50.0",
    "nombre": "SAST122"
  },
  {
    "lat": 3.47562422,
    "lon": -76.50411725,
    "direccion": "Calle 52 - carrera 1 sentido SSE - NNO",
    "tecnologia": "Radar Doppler",
    "instalacion": "Fijo",
    "estado": "Operando",
    "infracciones": "C03, C14, C24, C26, C29, C32, C35, D02, D04, D05, D07",
    "velocidad": "30.0",
    "nombre": "SAST118"
  },
  {
    "lat": 3.39840597,
    "lon": -76.5378339,
    "direccion": "Calle13 - carrera 66 sentido NNE - SSO - carriles del costado occidental",
    "tecnologia": "Radar Doppler",
    "instalacion": "Fijo",
    "estado": "Operando",
    "infracciones": "C14, C24, C26, C29, C32, C35, D02, D04, D05, D07",
    "velocidad": "50.0",
    "nombre": "SAST123B"
  },
  {
    "lat": 3.39840597,
    "lon": -76.5378339,
    "direccion": "Calle 13 - carrera 66 sentido NNE - SSO - carriles del costado oriental",
    "tecnologia": "Radar Doppler",
    "instalacion": "Fijo",
    "estado": "Operando",
    "infracciones": "C14, C24, C26, C29, C32, C35, D02, D04, D05, D07",
    "velocidad": "50.0",
    "nombre": "SAST123A"
  },
  {
    "lat": 3.41234433,
    "lon": -76.51535818,
    "direccion": "Calle36 - carrera 42B sentido SO - NE Calzada rápida",
    "tecnologia": "Radar Doppler",
    "instalacion": "Fijo",
    "estado": "Operando",
    "infracciones": "C14, C24, C26, C29, C32, C35, D02, D04, D05, D07",
    "velocidad": "50.0",
    "nombre": "SAST117"
  },
  {
    "lat": 3.45032257,
    "lon": -76.4877127,
    "direccion": "Calle 70 - carrera 9 Sentido NNE - SSO",
    "tecnologia": "Radar Doppler",
    "instalacion": "Fijo",
    "estado": "Operando",
    "infracciones": "C14, C24, C26, C29, C35, D02, D05, D07",
    "velocidad": "50.0",
    "nombre": "SAST126"
  },
  {
    "lat": 3.42242536,
    "lon": -76.53824873,
    "direccion": "Calle 9 - carrera 38 sentido SSO - NNE",
    "tecnologia": "Radar Doppler",
    "instalacion": "Fijo",
    "estado": "Operando",
    "infracciones": "C14, C24, C26, C29, C32, C35, D02, D04, D05, D07",
    "velocidad": "30.0",
    "nombre": "SAST135B"
  },
  {
    "lat": 3.42242536,
    "lon": -76.53824873,
    "direccion": "Calle 9 - carrera 38 sentido SSO - NNE",
    "tecnologia": "Radar Doppler",
    "instalacion": "Fijo",
    "estado": "Operando",
    "infracciones": "C14, C24, C26, C29, C32, C35, D02, D04, D05, D07",
    "velocidad": "30.0",
    "nombre": "SAST135A"
  },
  {
    "lat": 3.40745745,
    "lon": -76.54241927,
    "direccion": "Carrera 56 - calle 9 sentido ESE - ONO",
    "tecnologia": "Radar Doppler",
    "instalacion": "Fijo",
    "estado": "Operando",
    "infracciones": "C14, C24, C26, C29, C32, C35, D02, D04, D05, D07",
    "velocidad": "30.0",
    "nombre": "SAST121"
  },
  {
    "lat": 3.4560002,
    "lon": -76.52236547,
    "direccion": "Carrera 5 - calle 23 Sentido O - E",
    "tecnologia": "Radar Doppler",
    "instalacion": "Fijo",
    "estado": "Operando",
    "infracciones": "C03, C14, C24, C26, C29, C32, C35, D02, D04, D05, D07",
    "velocidad": "50.0",
    "nombre": "SAST127"
  },
  {
    "lat": 3.43565751,
    "lon": -76.52819923,
    "direccion": "Calle 13 - carrera  23 Sentido S - N",
    "tecnologia": "Radar Doppler",
    "instalacion": "Fijo",
    "estado": "Operando",
    "infracciones": "C14, C24, C26, C29, C32, C35, D02, D04, D05, D07",
    "velocidad": "50.0",
    "nombre": "SAST125"
  },
  {
    "lat": 3.46287358,
    "lon": -76.52197999,
    "direccion": "Calle 25 - Avenida 2AN Sentido  NNO - SSE",
    "tecnologia": "Radar Doppler",
    "instalacion": "Fijo",
    "estado": "Operando",
    "infracciones": "C14, C24, C29, C32, C35, D02, D04, D05, D07",
    "velocidad": "50.0",
    "nombre": "SAST131"
  },
  {
    "lat": 3.38739084,
    "lon": -76.532488,
    "direccion": "Calle 14 - carrera 80 sentido S - N",
    "tecnologia": "Radar Doppler",
    "instalacion": "Fijo",
    "estado": "Operando",
    "infracciones": "C03, C14, C24, C26, C29, C32, C35, D02, D04, D05, D07",
    "velocidad": "50.0",
    "nombre": "SAST134"
  },
  {
    "lat": 3.48917593,
    "lon": -76.50556419,
    "direccion": "Calle 70 - Avenida 2AN sentido ESE - ONO",
    "tecnologia": "Radar Doppler",
    "instalacion": "Fijo",
    "estado": "Operando",
    "infracciones": "C14, C24, C26, C29, C32, C35, D02, D04, D05, D07",
    "velocidad": "50.0",
    "nombre": "SAST130"
  },
  {
    "lat": 3.45520276,
    "lon": -76.48484506,
    "direccion": "Calle 70 - carrera 7MBIS sentido SSO - NNE",
    "tecnologia": "Radar Doppler",
    "instalacion": "Fijo",
    "estado": "Operando",
    "infracciones": "C14, C24, C26, C29, C35, D02, D05, D07",
    "velocidad": "50.0",
    "nombre": "SAST116"
  },
  {
    "lat": 3.43598837,
    "lon": -76.52004537,
    "direccion": "Calle 23 - carrera 23 sentido N-S",
    "tecnologia": "Radar Doppler",
    "instalacion": "Fijo",
    "estado": "Operando",
    "infracciones": "C03, C14, C24, C26, C29, C32, C35, D02, D04, D05, D07",
    "velocidad": "50.0",
    "nombre": "SAST113A"
  },
  {
    "lat": 3.43598837,
    "lon": -76.52004537,
    "direccion": "Calle 23 - carrera 23 sentido N-S",
    "tecnologia": "Radar Doppler",
    "instalacion": "Fijo",
    "estado": "Operando",
    "infracciones": "C03, C14, C24, C26, C29, C32, C35, D02, D04, D05, D07",
    "velocidad": "50.0",
    "nombre": "SAST113B"
  },
  {
    "lat": 3.452564,
    "lon": -76.537934,
    "direccion": "Avenida 2 - calle 6 sentido OSO-ENE",
    "tecnologia": "Radar Doppler",
    "instalacion": "Fijo",
    "estado": "Operando",
    "infracciones": "C03, C14, C24, C26, C29, C32, C35, D02, D04, D05, D07",
    "velocidad": "50.0",
    "nombre": "SAST114"
  },
  {
    "lat": 3.46785767,
    "lon": -76.52936582,
    "direccion": "Avenida 6N - calle 26 sentido SSO-NNE",
    "tecnologia": "Radar Doppler",
    "instalacion": "Fijo",
    "estado": "Operando",
    "infracciones": "C03, C14, C24, C26, C29, C32, C35, D02, D04, D05, D07",
    "velocidad": "50.0",
    "nombre": "SAST111"
  },
  {
    "lat": 3.37033488,
    "lon": -76.53712726,
    "direccion": "Calle 13 - carrera 100  sentido S-N",
    "tecnologia": "Radar Doppler",
    "instalacion": "Fijo",
    "estado": "Operando",
    "infracciones": "C03, C14, C24, C26, C29, C32, C35, D02, D04, D05, D07",
    "velocidad": "50.0",
    "nombre": "SAST104"
  },
  {
    "lat": 3.4839147,
    "lon": -76.5141141,
    "direccion": "Calle 52N - Avenida 3N ONO-ESE",
    "tecnologia": "Radar Doppler",
    "instalacion": "Fijo",
    "estado": "Operando",
    "infracciones": "C03, C14, C24, C26, C29, C32, C35, D02, D04, D05, D07",
    "velocidad": "50.0",
    "nombre": "SAST108"
  },
  {
    "lat": 3.44277624,
    "lon": -76.53197493,
    "direccion": "calle 10 - carrera 15 N-S",
    "tecnologia": "Radar Doppler",
    "instalacion": "Fijo",
    "estado": "Operando",
    "infracciones": "C14, C24, C26, C29, C32, C35, D02, D04, D05, D07",
    "velocidad": "50.0",
    "nombre": "SAST109"
  },
  {
    "lat": 3.48069643,
    "lon": -76.48940956,
    "direccion": "Calle 70 - Carrera 1A-12 sentido NNO-SSE",
    "tecnologia": "Radar Doppler",
    "instalacion": "Fijo",
    "estado": "Operando",
    "infracciones": "C14, C24, C26, C29, C32, C35, D02, D04, D05, D07",
    "velocidad": "50.0",
    "nombre": "SAST112"
  },
  {
    "lat": 3.43203963,
    "lon": -76.53883094,
    "direccion": "Calle 6 - carrera 29 sentido N - S",
    "tecnologia": "Radar Doppler",
    "instalacion": "Fijo",
    "estado": "Operando",
    "infracciones": "C14, C24, C26, C29, C32, C35, D02, D04, D05, D07",
    "velocidad": "50.0",
    "nombre": "SAST115B"
  },
  {
    "lat": 3.43203963,
    "lon": -76.53883094,
    "direccion": "Calle 6 - carrera 29 Sentido N - S",
    "tecnologia": "Radar Doppler",
    "instalacion": "Fijo",
    "estado": "Operando",
    "infracciones": "C14, C24, C26, C29, C32, C35, D02, D04, D05, D07",
    "velocidad": "50.0",
    "nombre": "SAST115A"
  },
  {
    "lat": 3.40927168,
    "lon": -76.51781271,
    "direccion": "Carrera 46 - calle 36 sentido SE - NO",
    "tecnologia": "Radar Doppler",
    "instalacion": "Fijo",
    "estado": "Operando",
    "infracciones": "C14, C24, C26, C29, C32, C35, D02, D04, D05, D07",
    "velocidad": "50.0",
    "nombre": "SAST94"
  },
  {
    "lat": 3.40180788,
    "lon": -76.52446973,
    "direccion": "Carrera 56 - calle 18A Sentido E - O",
    "tecnologia": "Radar Doppler",
    "instalacion": "Fijo",
    "estado": "Operando",
    "infracciones": "C14, C24, C26, C29, C32, C35, D02, D04, D05, D07",
    "velocidad": "50.0",
    "nombre": "SAST120"
  },
  {
    "lat": 3.484783,
    "lon": -76.526022,
    "direccion": "Avenida 6N - Calle 47 Sentido N - S",
    "tecnologia": "Radar Doppler",
    "instalacion": "Fijo",
    "estado": "Operando",
    "infracciones": "C14, C24, C26, C29, C32, C35, D02, D04, D05, D07",
    "velocidad": "50.0",
    "nombre": "SAST129"
  },
  {
    "lat": 3.41083538,
    "lon": -76.54173929,
    "direccion": "Calle 9 - carrera 50 sentido SSO - NNE calzada oriental",
    "tecnologia": "Radar Doppler",
    "instalacion": "Fijo",
    "estado": "Operando",
    "infracciones": "C03, C14, C24, C26, C29, C32, C35, D02, D04, D05, D07",
    "velocidad": "50.0",
    "nombre": "SAST133A"
  },
  {
    "lat": 3.414814,
    "lon": -76.537174,
    "direccion": "Calle 10 - carrera 45 sentido SSO-NNE",
    "tecnologia": "Radar Doppler",
    "instalacion": "Fijo",
    "estado": "Operando",
    "infracciones": "C14, C24, C26, C29, C35, D02, D07",
    "velocidad": "50.0",
    "nombre": "SAST110"
  },
  {
    "lat": 3.38559636,
    "lon": -76.54442151,
    "direccion": "Calle 5 - carrera 80 sentido S-N",
    "tecnologia": "Radar Doppler",
    "instalacion": "Fijo",
    "estado": "Operando",
    "infracciones": "C03, C14, C24, C26, C29, C32, C35, D02, D04, D05, D07",
    "velocidad": "50.0",
    "nombre": "SAST97"
  },
  {
    "lat": 3.415413,
    "lon": -76.537093,
    "direccion": "Calle 10 - carrera 44A  sentido NNE-SSO",
    "tecnologia": "Radar Doppler",
    "instalacion": "Fijo",
    "estado": "Operando",
    "infracciones": "C14, C24, C26, C29, C35, D02, D05, D07",
    "velocidad": "50.0",
    "nombre": "SAST101"
  },
  {
    "lat": 3.390504,
    "lon": -76.5240686,
    "direccion": "Calle 25 - carrera 73 sentido S-N",
    "tecnologia": "Radar Doppler",
    "instalacion": "Fijo",
    "estado": "Operando",
    "infracciones": "C14, C24, C26, C29, C35, D02, D05, D07",
    "velocidad": "50.0",
    "nombre": "SAST107"
  },
  {
    "lat": 3.39332594,
    "lon": -76.53242501,
    "direccion": "Calle 14 - carrera 70  sentidoN-S",
    "tecnologia": "Radar Doppler",
    "instalacion": "Fijo",
    "estado": "Operando",
    "infracciones": "C03, C14, C24, C26, C29, C32, C35, D02, D04, D05, D07",
    "velocidad": "50.0",
    "nombre": "SAST100"
  },
  {
    "lat": 3.43143,
    "lon": -76.537631,
    "direccion": "Calle 7 - carrera 29  sentido S-N",
    "tecnologia": "Radar Doppler",
    "instalacion": "Fijo",
    "estado": "Operando",
    "infracciones": "C14, C24, C26, C29, C32, C35, D02, D04, D05, D07",
    "velocidad": "50.0",
    "nombre": "SAST105"
  },
  {
    "lat": 3.39815531,
    "lon": -76.54684476,
    "direccion": "Carrera 66 - calle 5 sentido O-E",
    "tecnologia": "Radar Doppler",
    "instalacion": "Fijo",
    "estado": "Operando",
    "infracciones": "C14, C24, C26, C29, C32, C35, D02, D04, D05, D07",
    "velocidad": "50.0",
    "nombre": "SAST96"
  },
  {
    "lat": 3.436169,
    "lon": -76.51273,
    "direccion": "Transversal 29 - Carrera 23 Sentido SE - NO Calzada izquierda (costado occidental)",
    "tecnologia": "Radar Doppler",
    "instalacion": "Fijo",
    "estado": "Autorizada instalar",
    "infracciones": "C14, C24, C29, C32, C35, D02, D04, D05, D07",
    "velocidad": "50.0",
    "nombre": "SAST13A"
  },
  {
    "lat": 3.436169,
    "lon": -76.51273,
    "direccion": "Transversal 29 - Carrera 23 Sentido SE - NO Calzada derecha (costado oriental)",
    "tecnologia": "Radar Doppler",
    "instalacion": "Fijo",
    "estado": "Autorizada instalar",
    "infracciones": "C14, C24, C29, C32, C35, D02, D04, D05, D07",
    "velocidad": "50.0",
    "nombre": "SAST13B"
  },
  {
    "lat": 3.419761,
    "lon": -76.507802,
    "direccion": "Calle 36 - KR 39 Sentido  NE - SO Carriles del costado norte de la calzada",
    "tecnologia": "Radar Doppler",
    "instalacion": "Fijo",
    "estado": "Autorizada instalar",
    "infracciones": "C14, C24, C29, C32, C35, D02, D04, D05, D07",
    "velocidad": "50.0",
    "nombre": "SAST14B"
  },
  {
    "lat": 3.442178,
    "lon": -76.52601,
    "direccion": "Calle 15 - carrera 15 sentido S - N",
    "tecnologia": "Radar Doppler",
    "instalacion": "Fijo",
    "estado": "Autorizada instalar",
    "infracciones": "C14, C24, C29, C32, C35, D02, D04, D07",
    "velocidad": "40.0",
    "nombre": "SAST31"
  },
  {
    "lat": 3.459136,
    "lon": -76.533408,
    "direccion": "Avenida 8N - calle 15 N Sentido NE  - SO",
    "tecnologia": "Radar Doppler",
    "instalacion": "Fijo",
    "estado": "Autorizada instalar",
    "infracciones": "C14, C24, C29, C32, C35, D02, D04, D07",
    "velocidad": "30.0",
    "nombre": "SAST37"
  },
  {
    "lat": 3.454688,
    "lon": -76.48227,
    "direccion": "Calle 73 - Carrera 7RBis Sentido N - S",
    "tecnologia": "Radar Doppler",
    "instalacion": "Fijo",
    "estado": "Autorizada instalar",
    "infracciones": "C14, C24, C29, C35, D02, D07",
    "velocidad": "50.0",
    "nombre": "SAST29"
  },
  {
    "lat": 3.401806,
    "lon": -76.50436,
    "direccion": "Calle 54 - Carrera 42B Sentido NE - SO",
    "tecnologia": "Radar Doppler",
    "instalacion": "Fijo",
    "estado": "Autorizada instalar",
    "infracciones": "C14, C24, C29, C32, C35, D02, D04, D07",
    "velocidad": "30.0",
    "nombre": "SAST36"
  },
  {
    "lat": 3.441308,
    "lon": -76.49876,
    "direccion": "carrera 23 - calle 52 ENE - OSO Calzada lenta 2 carriles",
    "tecnologia": "Radar Doppler",
    "instalacion": "Fijo",
    "estado": "Autorizada instalar",
    "infracciones": "C14, C24, C29, C32, C35, D02, D04, D07",
    "velocidad": "50.0",
    "nombre": "SAST6B"
  },
  {
    "lat": 3.487,
    "lon": -76.51165,
    "direccion": "Avenida 3N - Calle 57N Sentido NNE - SSO",
    "tecnologia": "Radar Doppler",
    "instalacion": "Móvil",
    "estado": "Autorizada instalar",
    "infracciones": "C14, C24, C26, C29, C35, D02, D07",
    "velocidad": "50.0",
    "nombre": "SAST25"
  },
  {
    "lat": 3.490858,
    "lon": -76.491854,
    "direccion": "Carrera 1 - calle 71 Sentido NE - SO",
    "tecnologia": "Radar Doppler",
    "instalacion": "Móvil",
    "estado": "Autorizada instalar",
    "infracciones": "C14, C24, C29, C35, D02, D07",
    "velocidad": "50.0",
    "nombre": "SAST35"
  },
  {
    "lat": 3.387213,
    "lon": -76.53868,
    "direccion": "Calle 13 carrera 80 Sentido N - S",
    "tecnologia": "Radar Doppler",
    "instalacion": "Móvil",
    "estado": "Autorizada instalar",
    "infracciones": "C14, C24, C26, C29, C35, D02, D07",
    "velocidad": "50.0",
    "nombre": "SAST41"
  },
  {
    "lat": 3.453275,
    "lon": -76.505693,
    "direccion": "Carrera 8 - calle 44 Sentido O - E",
    "tecnologia": "Radar Doppler",
    "instalacion": "Fijo",
    "estado": "Autorizada instalar",
    "infracciones": "C14, C24, C29, C32, C35, D02, D04, D07",
    "velocidad": "50.0",
    "nombre": "SAST34"
  },
  {
    "lat": 3.3147983,
    "lon": -76.5228599,
    "direccion": "Calle 36 - carrera 146 sentido N - S (Ruta: 25 - Tramo: 2504 - PR: 111 + 340 )",
    "tecnologia": "Radar Doppler",
    "instalacion": "Móvil",
    "estado": "Autorizada instalar",
    "infracciones": "C24, C29, C35, D02, D07",
    "velocidad": "70.0",
    "nombre": "SAST03"
  },
  {
    "lat": 3.40674,
    "lon": -76.54038,
    "direccion": "Carrera 56 - calle 10 Sentido ONO - ESE",
    "tecnologia": "Radar Doppler",
    "instalacion": "Fijo",
    "estado": "Autorizada instalar",
    "infracciones": "C14, C24, C29, C32, C35, D02, D04, D07",
    "velocidad": "50.0",
    "nombre": "SAST17"
  },
  {
    "lat": 3.388155,
    "lon": -76.51624,
    "direccion": "Calle 48 - Carrera 80 Sentido S- N",
    "tecnologia": "Radar Doppler",
    "instalacion": "Fijo",
    "estado": "Autorizada instalar",
    "infracciones": "C03, C14, C24, C29, C32, C35, D02, D04, D07",
    "velocidad": "50.0",
    "nombre": "SAST23"
  },
  {
    "lat": 3.480683,
    "lon": -76.49872,
    "direccion": "Carrera 1 - Calle 62 sentido SO  - NE",
    "tecnologia": "Radar Doppler",
    "instalacion": "Fijo",
    "estado": "Autorizada instalar",
    "infracciones": "C14, C24, C29, C32, C35, D02, D04, D07",
    "velocidad": "50.0",
    "nombre": "SAST42"
  },
  {
    "lat": 3.418409,
    "lon": -76.554167,
    "direccion": "Calle 1 - carrera 50 sentido NNE - SSO",
    "tecnologia": "Radar Doppler",
    "instalacion": "Fijo",
    "estado": "Autorizada instalar",
    "infracciones": "C14, C24, C29, C32, C35, D02, D04, D07",
    "velocidad": "50.0",
    "nombre": "SAST09"
  },
  {
    "lat": 3.417703,
    "lon": -76.55421,
    "direccion": "Calle 1 - carrera 50 sentido SSO - NNE",
    "tecnologia": "Radar Doppler",
    "instalacion": "Fijo",
    "estado": "Autorizada instalar",
    "infracciones": "C14, C24, C29, C32, C35, D02, D04, D07",
    "velocidad": "50.0",
    "nombre": "SAST08"
  },
  {
    "lat": 3.4108,
    "lon": -76.54171944,
    "direccion": "Calle 9 - carrera 50 sentido SSO - NNE  calzada occidental",
    "tecnologia": "Radar Doppler",
    "instalacion": "Fijo",
    "estado": "Autorizada instalar",
    "infracciones": "C03, C14, C24, C26, C29, C32, C35, D02, D04, D05, D07",
    "velocidad": "50.0",
    "nombre": "SAST133B"
  },
  {
    "lat": 3.3748252,
    "lon": -76.5251546,
    "direccion": "CALLE 25 CON CARRERA 95",
    "tecnologia": "Laser (Lidar) / Infrarrojo",
    "instalacion": "nan",
    "estado": "Vencida",
    "infracciones": "nan",
    "velocidad": "",
    "nombre": "Cl25Cr95"
  },
  {
    "lat": 3.4358454,
    "lon": -76.5178694,
    "direccion": "CARRERA 23 CON TRANSVERSAL 25E",
    "tecnologia": "Laser (Lidar) / Infrarrojo",
    "instalacion": "nan",
    "estado": "Vencida",
    "infracciones": "nan",
    "velocidad": "",
    "nombre": "Cr23Tr25E"
  },
  {
    "lat": 3.476221,
    "lon": -76.5182469,
    "direccion": "AVENIDA 3N CON CALLE 40",
    "tecnologia": "Laser (Lidar) / Infrarrojo",
    "instalacion": "nan",
    "estado": "Vencida",
    "infracciones": "nan",
    "velocidad": "",
    "nombre": "Av3NCl40"
  },
  {
    "lat": 3.3307345,
    "lon": -76.5229133,
    "direccion": "CALLE 36 CON CARRERA 128",
    "tecnologia": "Laser (Lidar) / Infrarrojo",
    "instalacion": "nan",
    "estado": "Vencida",
    "infracciones": "nan",
    "velocidad": "",
    "nombre": "Cl36Cr128"
  },
  {
    "lat": 3.4754939,
    "lon": -76.487327,
    "direccion": "CALLE 70 CON CARRERA 1D",
    "tecnologia": "Laser (Lidar) / Infrarrojo",
    "instalacion": "nan",
    "estado": "Vencida",
    "infracciones": "nan",
    "velocidad": "",
    "nombre": "Cl70Cr1D"
  },
  {
    "lat": 3.3802098,
    "lon": -76.5377124,
    "direccion": "CALLE 13 CON CARRERA86",
    "tecnologia": "Laser (Lidar) / Infrarrojo",
    "instalacion": "nan",
    "estado": "Vencida",
    "infracciones": "nan",
    "velocidad": "",
    "nombre": "Cl13Cr86"
  },
  {
    "lat": 3.486059,
    "lon": -76.4956798,
    "direccion": "CALLE 70 CON CARRERA 1",
    "tecnologia": "Laser (Lidar) / Infrarrojo",
    "instalacion": "nan",
    "estado": "Vencida",
    "infracciones": "nan",
    "velocidad": "",
    "nombre": "Cl70Cr1"
  }
]